City_ID,City,Country,Lat,Lng,Max Temp,Humidity,Cloudiness,Wind Speed,Current Description
0,Cape Town,ZA,-33.9258,18.4232,72.12,67,20,5.75,few clouds
1,Castro,BR,-24.7911,-50.0119,62.37,99,67,6.46,broken clouds
2,Boa Vista,BR,2.8197,-60.6733,75.18,83,75,1.14,broken clouds
3,Kastamonu,TR,41.5,33.6667,41.02,97,100,4.14,overcast clouds
4,Oranjestad,AW,12.524,-70.027,78.91,86,20,14.97,few clouds
5,Tasiilaq,GL,65.6145,-37.6368,1.56,48,0,3.6,clear sky
6,Khash,IR,28.2211,61.2158,55.24,68,79,3.69,broken clouds
7,Rikitea,PF,-23.1203,-134.9692,78.04,72,25,10.96,scattered clouds
8,Dawlatabad,AF,36.4141,64.9053,44.53,80,95,4.63,overcast clouds
9,East London,ZA,-33.0153,27.9116,74.34,73,75,10.36,broken clouds
10,Ziro,IN,27.6333,93.8333,38.14,76,98,0.78,overcast clouds
11,Shalya,RU,57.2471,58.7298,2.5,97,26,1.95,scattered clouds
12,Ushuaia,AR,-54.8,-68.3,40.66,75,75,20.71,broken clouds
13,Ostrovnoy,RU,68.0531,39.5131,18.79,87,85,20.54,overcast clouds
14,Smithers,CA,54.7804,-127.1743,26.92,100,100,3.44,light snow
15,Leninskoye,KZ,41.7589,69.3864,39.72,58,99,1.43,overcast clouds
16,Mar Del Plata,AR,-38.0023,-57.5575,67.08,87,100,18.41,overcast clouds
17,Itoman,JP,26.1247,127.6694,70.57,62,20,17.27,few clouds
18,Cabo San Lucas,MX,22.8909,-109.9124,69.51,73,0,6.29,clear sky
19,Kulachi,PK,31.9286,70.4592,67.1,33,89,2.24,overcast clouds
20,Gizo,SB,-8.103,156.8419,85.55,69,100,12.12,overcast clouds
21,Longyearbyen,SJ,78.2186,15.6401,35.44,80,75,1.14,light rain and snow
22,Punta Arenas,CL,-53.15,-70.9167,46.51,66,20,28.77,few clouds
23,Meulaboh,ID,4.1363,96.1285,83.8,67,100,3.33,light rain
24,Port Alfred,ZA,-33.5906,26.891,73.18,82,98,7.0,overcast clouds
25,Geraldton,AU,-28.7667,114.6,91.81,27,0,24.16,clear sky
26,Tonj,SS,7.2737,28.6822,72.91,23,74,7.4,broken clouds
27,Vardo,NO,70.3705,31.1107,21.18,73,100,21.85,overcast clouds
28,Lethem,GY,3.3803,-59.7968,73.71,85,63,8.48,broken clouds
29,Sao Felix Do Xingu,BR,-6.6447,-51.995,70.47,100,100,0.85,overcast clouds
30,Qaanaaq,GL,77.484,-69.3632,-11.92,98,100,1.32,overcast clouds
31,Busselton,AU,-33.65,115.3333,78.35,36,0,8.43,clear sky
32,Koundara,GN,12.4833,-13.3,72.48,36,91,1.97,overcast clouds
33,Xining,CN,36.6167,101.7667,25.03,27,36,3.13,scattered clouds
34,Mount Isa,AU,-20.7333,139.5,91.17,46,82,6.91,broken clouds
35,Constantine,DZ,36.365,6.6147,38.61,75,0,1.14,clear sky
36,Avarua,CK,-21.2078,-159.775,78.85,83,40,6.91,scattered clouds
37,Bluff,NZ,-46.6,168.3333,61.88,78,3,10.33,clear sky
38,Albany,US,42.6001,-73.9662,27.03,74,49,2.93,scattered clouds
39,Carnarvon,AU,-24.8667,113.6333,94.41,33,55,19.77,broken clouds
40,Narsaq,GL,60.9167,-46.05,16.02,73,91,7.61,overcast clouds
41,Jamestown,US,42.097,-79.2353,28.71,89,100,16.11,overcast clouds
42,Vilyuysk,RU,63.7553,121.6247,3.97,93,100,7.45,overcast clouds
43,Pueblo Nuevo,MX,23.3833,-105.3833,45.54,46,0,6.22,clear sky
44,Prieska,ZA,-29.6641,22.7474,83.8,16,1,5.86,clear sky
45,Klyuchi,RU,52.2667,79.1667,12.81,93,37,7.4,scattered clouds
46,Tiksi,RU,71.6872,128.8694,-15.74,100,99,2.06,overcast clouds
47,Mahibadhoo,MV,3.7833,72.9667,80.94,73,94,2.35,overcast clouds
48,Pasighat,IN,28.0667,95.3333,69.64,42,42,4.16,scattered clouds
49,Carballo,ES,43.213,-8.691,58.01,91,98,10.92,overcast clouds
50,Saint Anthony,US,45.0205,-93.218,28.33,80,0,16.11,clear sky
51,Iqaluit,CA,63.7506,-68.5145,2.93,78,0,0.0,clear sky
52,Chuy,UY,-33.6971,-53.4616,63.91,71,100,6.2,overcast clouds
53,Northallerton,GB,54.339,-1.4324,47.1,78,100,14.97,overcast clouds
54,Rafai,CF,4.95,23.9167,68.72,31,97,5.17,overcast clouds
55,Bethel,US,41.3712,-73.414,32.49,72,100,3.44,overcast clouds
56,Campbellton,CA,48.0075,-66.6727,5.45,83,24,7.16,few clouds
57,Vaini,TO,-21.2,-175.2,80.76,89,75,6.91,broken clouds
58,Thompson,CA,55.7435,-97.8558,-14.64,76,100,6.91,overcast clouds
59,Tigil,RU,57.8,158.6667,2.07,99,100,3.22,overcast clouds
60,Mataura,NZ,-46.1927,168.8643,77.79,48,0,4.16,clear sky
61,Ewa Beach,US,21.3156,-158.0072,76.95,75,0,9.22,clear sky
62,Port Hedland,AU,-20.3167,118.5667,91.45,58,65,14.97,broken clouds
63,Xiaoweizhai,CN,26.1903,107.5125,35.24,87,100,5.84,overcast clouds
64,Chernyshevskiy,RU,63.0128,112.4714,4.5,93,100,10.89,overcast clouds
65,Provideniya,RU,64.3833,-173.3,-2.56,83,14,10.74,few clouds
66,Arinos,BR,-15.9169,-46.1056,68.79,96,97,1.41,overcast clouds
67,Sitka,US,57.0531,-135.33,35.49,93,75,3.44,broken clouds
68,Pemangkat,ID,1.1667,108.9667,82.2,70,100,12.37,overcast clouds
69,Port Blair,IN,11.6667,92.75,84.24,65,40,9.22,scattered clouds
70,Port Hardy,CA,50.6996,-127.4199,41.18,100,100,5.75,light intensity shower rain
71,Ahipara,NZ,-35.1667,173.1667,66.56,87,77,3.71,broken clouds
72,Hobart,AU,-42.8794,147.3294,67.05,55,75,17.27,broken clouds
73,Bagn,NO,60.8225,9.5521,7.34,95,97,3.74,overcast clouds
74,Hofn,IS,64.2539,-15.2082,24.57,91,99,13.58,light snow
75,Pahrump,US,36.2083,-115.9839,55.45,83,100,11.01,overcast clouds
76,Berlevag,NO,70.8578,29.0864,17.55,73,40,3.44,scattered clouds
77,Anuchino,RU,43.9622,133.0544,13.48,90,94,7.72,light snow
78,Puerto Ayora,EC,-0.7393,-90.3518,72.55,94,91,3.0,overcast clouds
79,Atambua,ID,-9.1061,124.8925,75.54,89,99,6.53,overcast clouds
80,Kieta,PG,-6.2167,155.6333,84.15,65,41,9.71,scattered clouds
81,Bambous Virieux,MU,-20.3428,57.7575,83.21,65,40,12.66,scattered clouds
82,Lensk,RU,60.7253,114.9278,7.65,91,100,10.38,overcast clouds
83,Perpignan,FR,42.75,2.75,44.24,93,75,2.3,broken clouds
84,Arraial Do Cabo,BR,-22.9661,-42.0278,74.23,92,99,18.68,overcast clouds
85,Andenes,NO,69.3143,16.1194,31.98,74,75,23.02,snow
86,Yambio,SS,4.5721,28.3955,71.65,28,87,6.06,overcast clouds
87,Gorontalo,ID,0.5412,123.0595,87.64,61,100,3.56,overcast clouds
88,Hay River,CA,60.8156,-115.7999,3.18,85,100,2.3,light snow
89,Saint-Joseph,RE,-21.3667,55.6167,84.58,70,23,9.66,few clouds
90,Atuona,PF,-9.8,-139.0333,78.01,76,52,12.91,broken clouds
91,Buala,SB,-8.145,159.5921,82.81,77,100,7.05,light rain
92,Sao Filipe,CV,14.8961,-24.4956,70.0,57,28,7.31,scattered clouds
93,Sneek,NL,53.033,5.6589,46.94,96,100,20.0,overcast clouds
94,Nome,US,64.5011,-165.4064,7.16,78,100,9.22,light snow
95,Mayumba,GA,-3.432,10.6554,77.74,87,36,4.99,moderate rain
96,Constitucion,CL,-35.3333,-72.4167,58.05,68,3,7.47,clear sky
97,Yellowknife,CA,62.456,-114.3525,1.92,85,100,9.22,light snow
98,Jacqueville,CI,5.2052,-4.4146,78.53,78,19,5.21,few clouds
99,Garowe,SO,8.4054,48.4845,72.63,58,48,9.73,scattered clouds
100,Clyde River,CA,70.4692,-68.5914,-9.17,84,100,8.05,overcast clouds
101,Hyeres,FR,43.1167,6.1167,52.68,84,0,3.44,clear sky
102,Harper,LR,4.375,-7.7169,76.44,84,19,5.5,few clouds
103,Rawson,AR,-43.3002,-65.1023,58.73,60,3,10.65,clear sky
104,Aklavik,CA,68.2191,-135.0107,-26.73,99,100,4.59,overcast clouds
105,Tonantins,BR,-2.8731,-67.8022,71.92,99,88,1.77,overcast clouds
106,Inirida,CO,3.8653,-67.9239,73.09,88,79,2.33,broken clouds
107,Trairi,BR,-3.2778,-39.2689,78.87,74,97,12.46,overcast clouds
108,Hilo,US,19.7297,-155.09,71.62,83,75,5.75,broken clouds
109,Opuwo,NA,-18.0607,13.84,73.38,31,51,1.12,broken clouds
110,Ponta Do Sol,PT,32.6667,-17.1,65.12,20,12,6.89,few clouds
111,Airai,TL,-8.9266,125.4092,63.45,93,100,3.87,overcast clouds
112,Hermanus,ZA,-34.4187,19.2345,68.81,75,67,6.64,broken clouds
113,Saint George,US,37.1041,-113.5841,47.95,91,100,4.61,overcast clouds
114,Barrow,US,71.2906,-156.7887,-7.58,71,0,18.41,clear sky
115,Namibe,AO,-15.1961,12.1522,70.23,73,46,3.18,scattered clouds
116,Iwanai,JP,42.9744,140.5089,34.27,81,99,10.02,light snow
117,Flinders,AU,-34.5833,150.8552,83.25,65,0,5.99,clear sky
118,Risor,NO,58.7206,9.2342,33.01,96,100,16.4,light snow
119,Saint-Philippe,RE,-21.3585,55.7679,85.59,72,24,12.64,few clouds
120,Southampton,GB,50.904,-1.4043,52.45,95,75,18.41,light intensity drizzle rain
121,Pevek,RU,69.7008,170.3133,-8.75,100,100,6.04,overcast clouds
122,Huanren,CN,41.2647,125.3667,16.09,49,40,5.1,scattered clouds
123,Union,US,40.6334,-74.2663,35.49,69,100,4.61,overcast clouds
124,Liverpool,GB,53.4106,-2.9779,44.82,87,20,8.05,few clouds
125,Devonport,AU,-41.1667,146.35,70.09,44,55,15.28,broken clouds
126,Tuktoyaktuk,CA,69.4541,-133.0374,-27.4,68,0,2.3,clear sky
127,Ixtapa,MX,20.7,-105.2,69.22,77,3,3.18,clear sky
128,Tazovskiy,RU,67.4667,78.7,-17.41,98,70,8.43,broken clouds
129,Nantucket,US,41.2835,-70.0995,32.11,65,100,0.0,overcast clouds
130,Pakxan,LA,18.3778,103.6601,83.07,40,83,3.49,broken clouds
131,Necochea,AR,-38.5473,-58.7368,60.82,84,100,13.96,overcast clouds
132,Dikson,RU,73.5069,80.5464,-21.15,97,94,1.92,overcast clouds
133,Nikolskoye,RU,59.7035,30.7861,33.69,95,99,7.61,overcast clouds
134,Kodiak,US,57.79,-152.4072,24.31,93,0,5.75,clear sky
135,Falun,SE,60.6036,15.626,14.95,87,75,2.57,broken clouds
136,Salalah,OM,17.0151,54.0924,78.89,57,0,3.44,clear sky
137,Mgandu,TZ,-5.95,34.1333,59.68,96,100,2.89,light rain
138,Fortuna,US,40.5982,-124.1573,48.34,96,100,0.0,overcast clouds
139,Caravelas,BR,-17.7125,-39.2481,72.21,95,99,2.84,overcast clouds
140,Cherskiy,RU,68.75,161.3,-9.94,99,100,3.02,overcast clouds
141,Aykhal,RU,66.0,111.5,-1.97,96,87,14.88,overcast clouds
142,Port Elizabeth,ZA,-33.918,25.5701,72.1,73,75,16.11,broken clouds
143,Warwick,US,41.7001,-71.4162,29.91,72,0,0.0,clear sky
144,Leningradskiy,RU,69.3833,178.4167,-23.62,99,90,5.75,overcast clouds
145,Haines Junction,CA,60.7522,-137.5108,3.15,85,100,0.0,overcast clouds
146,Tairua,NZ,-37.0167,175.85,69.22,70,1,6.4,clear sky
147,Kapaa,US,22.0752,-159.319,75.52,92,20,9.22,few clouds
148,Talnakh,RU,69.4865,88.3972,-9.74,98,90,4.16,overcast clouds
149,Nanortalik,GL,60.1432,-45.2371,23.99,91,100,1.16,overcast clouds
150,Teguise,ES,29.0605,-13.564,64.62,77,0,11.5,clear sky
151,Husavik,IS,66.0449,-17.3389,21.24,90,100,19.42,light snow
152,Gat,IL,31.61,34.7642,58.41,100,35,3.33,scattered clouds
153,Victoria,HK,22.2855,114.1577,72.19,59,73,11.01,broken clouds
154,Georgetown,MY,5.4112,100.3354,89.53,61,20,10.36,few clouds
155,Anadyr,RU,64.75,177.4833,-17.12,89,3,9.28,clear sky
156,Chokurdakh,RU,70.6333,147.9167,-26.23,100,97,7.2,overcast clouds
157,Chilliwack,CA,49.1747,-121.9443,46.53,98,100,8.01,moderate rain
158,Lorengau,PG,-2.0226,147.2712,82.92,74,99,8.63,overcast clouds
159,Batemans Bay,AU,-35.7167,150.1833,74.1,38,1,15.84,clear sky
160,Antofagasta,CL,-23.65,-70.4,63.68,77,9,2.84,clear sky
161,Kashi,CN,39.4547,75.9797,29.41,43,67,2.24,broken clouds
162,Obo,CF,5.3998,26.4869,71.26,25,77,8.3,broken clouds
163,Biak,ID,-0.9131,122.8766,82.6,68,100,0.94,overcast clouds
164,Beringovskiy,RU,63.05,179.3167,-2.49,98,99,19.8,light snow
165,Wawa,NG,9.9022,4.4192,67.23,35,0,5.1,clear sky
166,Murray Bridge,AU,-35.1167,139.2667,68.13,45,0,19.66,clear sky
167,Tiebissou,CI,7.1574,-5.2257,62.69,53,3,2.39,clear sky
168,Vanimo,PG,-2.6741,141.3028,81.55,83,98,7.52,overcast clouds
169,Les Cayes,HT,18.2,-73.75,72.68,78,4,3.53,clear sky
170,Pisco,PE,-13.7,-76.2167,69.85,88,75,3.44,broken clouds
171,Ambilobe,MG,-13.2,49.05,83.91,68,31,0.43,light rain
172,Ribeira Grande,PT,38.5167,-28.7,59.77,94,87,3.0,overcast clouds
173,Codrington,AU,-38.2667,141.9667,63.07,53,16,17.27,few clouds
174,Yelizavetino,RU,59.4916,29.7938,32.56,91,99,9.06,overcast clouds
175,Alta Floresta,BR,-9.8756,-56.0861,69.71,97,99,2.93,overcast clouds
176,Gilgit,PK,35.9221,74.3087,34.72,34,0,2.73,clear sky
177,Esperance,AU,-33.8667,121.9,65.19,52,5,12.37,clear sky
178,Yar-Sale,RU,66.8333,70.8333,-15.75,100,16,5.93,few clouds
179,Concepcion,CL,-36.827,-73.0498,53.4,82,0,9.22,clear sky
180,Norman Wells,CA,65.282,-126.8329,-12.96,70,75,2.3,broken clouds
181,Bredasdorp,ZA,-34.5322,20.0403,69.35,69,60,5.91,broken clouds
182,Zalantun,CN,48.0,122.7167,8.19,64,86,11.83,overcast clouds
183,Byron Bay,AU,-28.65,153.6167,77.94,65,27,9.37,scattered clouds
184,Ancud,CL,-41.8697,-73.8203,45.41,82,4,6.51,clear sky
185,Tunceli,TR,39.1083,39.5471,38.5,59,75,0.89,broken clouds
186,Lebu,CL,-37.6167,-73.65,53.46,83,4,17.98,clear sky
187,Torbay,CA,47.6666,-52.7314,36.57,91,100,23.02,light shower snow
188,Chongwe,ZM,-15.3292,28.682,71.78,72,86,10.85,overcast clouds
189,San Pedro De Lloc,PE,-7.4328,-79.5058,67.93,78,56,7.07,broken clouds
190,Adeje,ES,28.1227,-16.726,67.57,66,40,21.85,scattered clouds
191,Fauske,NO,67.2588,15.3918,35.64,96,100,17.45,snow
192,Half Moon Bay,US,37.4636,-122.4286,52.25,93,100,5.75,mist
193,Miami,US,25.7743,-80.1937,60.82,85,40,4.61,scattered clouds
194,New Norfolk,AU,-42.7826,147.0587,66.7,54,56,12.35,broken clouds
195,Omboue,GA,-1.5746,9.2618,76.91,88,19,1.81,light rain
196,Ndola,ZM,-12.9587,28.6366,67.89,80,96,7.02,overcast clouds
197,Mahebourg,MU,-20.4081,57.7,83.25,65,40,12.66,scattered clouds
198,Talcahuano,CL,-36.7167,-73.1167,53.28,82,0,9.22,clear sky
199,Machali,CL,-34.1833,-70.6667,61.56,55,0,1.39,clear sky
200,Russell,US,32.3502,-85.1999,34.02,93,0,0.0,clear sky
201,Camana,PE,-16.6228,-72.7111,70.84,87,95,8.3,overcast clouds
202,Banda Aceh,ID,5.5577,95.3222,83.28,70,100,5.79,overcast clouds
203,Tshikapa,CD,-6.4167,20.8,71.01,98,100,0.98,overcast clouds
204,Orkney,ZA,-26.9802,26.6727,75.81,54,88,11.23,overcast clouds
205,Mazyr,BY,52.0495,29.2456,31.78,91,97,12.68,overcast clouds
206,Hithadhoo,MV,-0.6,73.0833,81.16,73,65,12.39,broken clouds
207,Watrous,CA,51.6668,-105.4679,10.18,85,100,16.11,snow
208,Rodrigues Alves,BR,-7.738,-72.6509,73.6,82,99,3.15,overcast clouds
209,Cuyamel,HN,15.6667,-88.2,69.96,82,94,4.99,overcast clouds
210,Nishihara,JP,26.1842,127.7558,69.85,60,40,17.27,scattered clouds
211,Dalnerechensk,RU,45.9339,133.7225,10.94,93,98,9.35,overcast clouds
212,Kalmunai,LK,7.4167,81.8167,81.59,76,11,10.67,few clouds
213,Tocopilla,CL,-22.092,-70.1979,68.83,75,5,4.56,clear sky
214,Westport,US,41.1415,-73.3579,34.32,67,100,3.44,overcast clouds
215,Kontagora,NG,10.3999,5.4695,65.89,29,1,7.63,clear sky
216,Ust-Tsilma,RU,65.441,52.1498,-5.82,99,70,4.09,broken clouds
217,Ozinki,RU,51.1786,49.6769,19.09,97,45,6.67,scattered clouds
218,Vila Velha,BR,-20.3297,-40.2925,75.15,90,40,5.75,scattered clouds
219,Mugur-Aksy,RU,50.35,90.5,10.65,78,11,6.44,few clouds
220,Kayanga,TZ,-1.5303,31.1511,62.65,86,98,1.3,overcast clouds
221,Dargaville,NZ,-35.9333,173.8833,72.0,65,22,5.57,few clouds
222,Derzhavinsk,KZ,51.1,66.3167,19.26,95,100,4.09,overcast clouds
223,Oudtshoorn,ZA,-33.5907,22.2014,68.36,50,0,2.75,clear sky
224,Nianzishan,CN,47.5167,122.8833,9.0,61,85,7.85,overcast clouds
225,Nabire,ID,-3.3667,135.4833,78.15,84,100,6.11,overcast clouds
226,Wajima,JP,37.4,136.9,47.08,87,75,4.61,broken clouds
227,Riyadh,SA,24.6877,46.7219,51.94,53,0,15.64,clear sky
228,Oradea,RO,47.0667,21.9333,28.44,93,0,7.0,light snow
229,Balkhash,KZ,46.844,74.9804,12.81,79,0,6.71,clear sky
230,Whitehorse,CA,60.7161,-135.0538,13.8,92,100,10.36,mist
231,Hasaki,JP,35.7333,140.8333,54.0,53,74,12.97,broken clouds
232,Grootfontein,NA,-19.5667,18.1167,71.17,64,20,3.44,few clouds
233,Rosarito,MX,32.3333,-117.0333,59.49,85,99,5.61,light rain
234,Kudahuvadhoo,MV,2.6708,72.8944,81.18,69,100,5.84,overcast clouds
235,La Palma,US,33.8464,-118.0467,57.22,94,100,5.75,moderate rain
236,Palauig,PH,15.435,119.9045,83.5,56,34,3.67,scattered clouds
237,Tilichiki,RU,60.4667,166.1,-6.3,89,16,11.23,few clouds
238,Klaksvik,FO,62.2266,-6.589,34.72,71,97,5.97,overcast clouds
239,Butaritari,KI,3.0707,172.7902,81.16,79,95,16.64,overcast clouds
240,Bollene,FR,44.2848,4.753,39.07,100,0,0.0,clear sky
241,Inuvik,CA,68.3499,-133.7218,-22.94,76,20,3.44,light snow
242,Shiyan,CN,32.6475,110.7781,45.21,40,100,4.14,overcast clouds
243,Farmington,US,36.7281,-108.2187,43.48,85,100,10.36,overcast clouds
244,Champerico,GT,14.3,-91.9167,75.83,73,5,2.95,clear sky
245,Salina,US,38.8403,-97.6114,42.03,62,0,20.71,clear sky
246,Robe,AU,-37.1833,139.75,60.31,59,41,17.18,scattered clouds
247,Guerrero Negro,MX,27.9769,-114.0611,61.41,69,57,6.69,broken clouds
248,Shingu,JP,33.7333,135.9833,56.53,48,5,6.82,clear sky
249,Yamada,JP,39.4667,141.95,45.99,66,86,13.47,overcast clouds
250,Udon Thani,TH,17.3333,102.8333,86.83,42,20,4.61,few clouds
251,Lompoc,US,34.6391,-120.4579,55.85,100,100,5.75,mist
252,Benguela,AO,-12.5763,13.4055,76.3,76,100,1.66,light rain
253,Bathsheba,BB,13.2167,-59.5167,77.61,83,40,14.97,light rain
254,Brazzaville,CG,-4.2658,15.2832,74.19,91,56,1.03,broken clouds
255,Wamba,NG,8.9333,8.6,64.94,34,6,3.49,clear sky
256,High Rock,BS,26.6208,-78.2833,69.84,68,94,18.28,overcast clouds
257,Prabumulih,ID,-3.45,104.25,90.21,50,93,6.64,overcast clouds
258,Cidreira,BR,-30.1811,-50.2056,67.96,92,100,14.41,light rain
259,Koryazhma,RU,61.3143,47.1691,7.66,91,100,7.76,overcast clouds
260,Balkanabat,TM,39.5108,54.3671,45.9,61,99,1.92,overcast clouds
261,Sabya,SA,17.1495,42.6254,82.02,55,1,0.58,clear sky
262,Pangai,TO,-19.8,-174.35,80.71,78,75,0.0,light rain
263,Lagoa,PT,39.05,-27.9833,60.4,93,88,15.61,overcast clouds
264,Corralillo,CU,22.9819,-80.5856,68.63,80,28,9.51,scattered clouds
265,Quatre Cocos,MU,-20.2078,57.7625,83.08,65,28,13.35,scattered clouds
266,Caluquembe,AO,-13.7833,14.6833,63.97,76,65,0.89,broken clouds
267,Port Keats,AU,-14.25,129.55,86.16,70,100,10.16,overcast clouds
268,Pauini,BR,-7.7136,-66.9764,75.16,81,85,2.39,overcast clouds
269,Cabedelo,BR,-6.9811,-34.8339,77.67,81,9,11.48,clear sky
270,Port Arthur,CN,38.8,121.2667,30.42,47,8,14.56,clear sky
271,Asau,RO,46.4333,26.4,27.52,83,24,4.81,few clouds
272,Sabang,ID,5.8933,95.3214,80.69,71,100,10.6,overcast clouds
273,Ilulissat,GL,69.2167,-51.1,12.22,48,81,19.57,broken clouds
274,Haimen,CN,23.1935,116.6142,69.69,64,21,16.62,few clouds
275,Sao Joao Da Barra,BR,-21.6403,-41.0511,73.81,91,100,13.15,light rain
276,Mazamari,PE,-11.3258,-74.5308,68.09,87,22,2.19,few clouds
277,Valreas,FR,44.3837,4.9908,36.88,69,44,3.36,scattered clouds
278,Sahuaripa,MX,29.05,-109.2333,58.41,37,11,6.33,few clouds
279,Karpogory,RU,64.0019,44.4451,9.91,88,100,9.62,overcast clouds
280,Ballangen,NO,68.3428,16.8315,30.42,74,100,0.0,light snow
281,Bergerac,FR,44.8333,0.5,48.78,100,100,4.61,fog
282,Marawi,PH,7.9986,124.2928,73.45,88,100,5.35,overcast clouds
283,Buraydah,SA,26.326,43.975,48.65,67,0,11.52,clear sky
284,Vestmanna,FO,62.1564,-7.1664,32.92,86,100,1.14,overcast clouds
285,Neuquen,AR,-38.9516,-68.0591,67.89,28,0,10.36,clear sky
286,Nyzy,UA,50.7828,34.7844,33.37,89,100,18.23,overcast clouds
287,Veraval,IN,20.9,70.3667,78.66,30,9,6.29,clear sky
288,Praia Da Vitoria,PT,38.7333,-27.0667,61.05,94,75,7.25,broken clouds
289,Broken Hill,AU,-31.95,141.4333,78.69,54,98,22.32,light rain
290,Kabanjahe,ID,3.1001,98.4908,71.58,82,99,2.68,overcast clouds
291,Finspang,SE,58.7058,15.7674,31.71,94,59,3.4,broken clouds
292,Herat,AF,34.5,62.0,45.82,78,99,2.42,light rain
293,Muros,ES,42.7762,-9.0603,60.1,80,92,20.13,overcast clouds
294,Redcar,GB,54.6166,-1.06,47.53,64,76,15.43,broken clouds
295,Gulmarg,IN,34.049,74.3921,33.91,24,30,4.43,scattered clouds
296,Richards Bay,ZA,-28.783,32.0377,78.22,76,40,12.62,scattered clouds
297,Ust-Ilimsk,RU,58.0006,102.6619,15.85,94,100,6.24,overcast clouds
298,Valparaiso,CL,-33.0393,-71.6273,56.84,94,40,3.44,mist
299,Petatlan,MX,17.5167,-101.2667,70.65,83,35,4.63,scattered clouds
300,Egvekinot,RU,66.3167,-179.1667,-9.18,73,0,18.72,clear sky
301,Myitkyina,MM,25.3833,97.4,72.41,51,20,1.32,few clouds
302,Burnie,AU,-41.0667,145.9167,67.95,46,58,15.46,broken clouds
303,Mandera,KE,3.9366,41.867,80.91,55,54,8.52,broken clouds
304,Belaya Gora,RU,68.5333,146.4167,-35.28,100,44,3.36,scattered clouds
305,Gunnedah,AU,-30.9833,150.25,89.62,21,0,3.04,clear sky
306,Benjamin Constant,BR,-4.3831,-70.0311,75.33,91,93,1.45,overcast clouds
307,Yagodnoye,RU,62.55,149.6667,-28.84,99,76,4.81,broken clouds
308,Porto Nacional,BR,-10.7081,-48.4172,75.2,98,91,2.51,overcast clouds
309,Bengkulu,ID,-3.8004,102.2655,83.66,64,100,9.86,heavy intensity rain
310,Saskylakh,RU,71.9167,114.0833,-36.8,100,98,5.41,overcast clouds
311,Tatvan,TR,38.5067,42.2817,29.88,81,89,2.62,overcast clouds
312,Merritt Island,US,28.5392,-80.672,52.03,81,0,8.05,clear sky
313,Tessalit,ML,20.1986,1.0114,62.26,31,100,9.48,overcast clouds
314,Boddam,GB,57.4667,-1.7833,43.18,85,81,14.38,broken clouds
315,Alberton,CA,46.8168,-64.0654,17.51,65,73,18.28,broken clouds
316,Sinamar,PH,16.9,121.5667,69.08,94,100,3.36,overcast clouds
317,Laguna,US,38.421,-121.4238,52.09,94,0,6.91,clear sky
318,Siavonga,ZM,-16.5382,28.7088,78.53,52,42,5.21,scattered clouds
319,Limbang,MY,4.75,115.0,86.05,63,100,4.29,moderate rain
320,Auki,SB,-8.7676,160.7034,81.93,83,89,8.16,overcast clouds
321,San Patricio,US,28.017,-97.5169,58.84,85,39,6.73,scattered clouds
322,Vao,NC,-22.6667,167.4833,78.44,81,100,11.03,light rain
323,Los Llanos De Aridane,ES,28.6585,-17.9182,65.95,65,100,14.0,overcast clouds
324,Khatanga,RU,71.9667,102.5,-39.23,100,98,1.59,overcast clouds
325,Amherst Center,US,42.3754,-72.5192,23.79,88,31,1.14,scattered clouds
326,Altrincham,GB,53.3875,-2.3485,44.6,89,93,5.99,overcast clouds
327,Coquimbo,CL,-29.9533,-71.3436,62.33,94,0,4.61,clear sky
328,Abu Samrah,SY,35.3029,37.1841,46.06,82,2,5.3,clear sky
329,Lewistown,US,40.5992,-77.5714,30.72,93,100,0.0,light intensity drizzle
330,Severomuysk,RU,56.1481,113.4267,-3.77,81,70,4.7,broken clouds
331,Boueni,YT,-12.9025,45.0761,85.98,69,50,2.73,light rain
332,Taybad,IR,34.74,60.7756,41.97,76,83,8.25,broken clouds
333,Te Anau,NZ,-45.4167,167.7167,72.23,52,0,7.07,clear sky
334,Madras,IN,13.0878,80.2785,87.78,66,40,5.75,scattered clouds
335,Teya,RU,60.3778,92.6267,13.05,95,100,2.46,light snow
336,Weyburn,CA,49.6668,-103.8511,21.31,98,100,14.83,overcast clouds
337,Litovko,RU,49.2361,135.1742,10.13,95,100,3.6,overcast clouds
338,Lucapa,AO,-8.4192,20.7447,69.91,92,97,0.92,light rain
339,Bekhtery,UA,46.251,32.2927,39.65,62,11,17.11,few clouds
340,Ust-Maya,RU,60.4167,134.5333,-28.79,100,100,1.14,overcast clouds
341,Kaeo,NZ,-35.1,173.7833,72.32,73,35,4.83,scattered clouds
342,Bereda,ES,43.2686,-7.5406,46.0,90,100,8.79,overcast clouds
343,Beidao,CN,34.5686,105.8933,36.36,31,55,3.31,broken clouds
344,Kavaratti,IN,10.5669,72.642,81.66,77,3,11.41,clear sky
345,Lom Sak,TH,16.7798,101.2422,85.89,37,0,3.44,clear sky
346,Bimbo,CF,4.2567,18.4158,77.95,24,32,7.09,scattered clouds
347,Nemuro,JP,43.3236,145.575,34.74,74,13,9.06,few clouds
348,Antalaha,MG,-14.9003,50.2788,83.66,56,11,7.67,few clouds
349,Havre-Saint-Pierre,CA,50.2334,-63.5986,10.4,73,8,10.49,clear sky
350,Puerto Del Rosario,ES,28.5004,-13.8627,69.55,73,0,19.57,clear sky
351,Manado,ID,1.487,124.8455,88.57,66,20,5.75,few clouds
352,Kitimat,CA,54.0524,-128.6534,32.38,32,100,1.74,overcast clouds
353,Carlsbad,US,33.1581,-117.3506,59.92,90,100,5.75,moderate rain
354,Karratha,AU,-20.7377,116.8463,90.0,53,100,15.35,overcast clouds
355,Dalaba,GN,10.7,-12.25,59.36,45,92,2.17,overcast clouds
356,Seoul,KR,37.5683,126.9778,33.19,38,20,11.5,few clouds
357,Katsuura,JP,35.1333,140.3,54.86,58,4,22.97,clear sky
358,Tirumullaivasal,IN,11.2333,79.8333,81.46,71,8,9.84,clear sky
359,Catamarca,AR,-28.4696,-65.7852,71.78,63,1,1.99,clear sky
360,Fairbanks,US,64.8378,-147.7164,3.6,73,100,4.61,light snow
361,Port Pirie,AU,-33.1833,138.0167,70.38,49,1,20.6,clear sky
362,Pachino,IT,36.7186,15.0907,58.64,66,5,3.44,clear sky
363,Jacareacanga,BR,-6.2222,-57.7528,69.71,100,71,1.23,heavy intensity rain
364,Plettenberg Bay,ZA,-34.0527,23.3716,70.5,61,0,2.82,clear sky
365,Juneau,US,58.3019,-134.4197,35.22,100,100,3.44,fog
366,Pacific Grove,US,36.6177,-121.9166,51.91,92,0,3.44,clear sky
367,Aksarka,RU,66.5606,67.7975,-14.37,100,98,1.1,overcast clouds
368,Dali,CN,25.7,100.1833,52.77,43,18,7.81,few clouds
369,Suntar,RU,62.1444,117.6319,7.29,93,100,8.1,overcast clouds
370,Praia,CV,14.9215,-23.5087,68.54,68,20,6.91,few clouds
371,Grand Gaube,MU,-20.0064,57.6608,83.37,55,8,11.99,clear sky
372,Japura,ID,-0.3167,102.35,84.69,73,96,2.33,heavy intensity rain
373,Yeghegnavan,AM,39.838,44.6253,25.2,43,100,0.83,overcast clouds
374,Syracuse,IT,37.0881,15.2792,45.99,54,7,3.91,clear sky
375,Kavieng,PG,-2.5744,150.7967,84.13,66,26,8.1,scattered clouds
376,Aleksandrov Gay,RU,50.147,48.5704,23.43,71,90,8.79,overcast clouds
377,Mayo,US,38.8876,-76.5119,33.13,83,0,3.44,clear sky
378,Alofi,NU,-19.0595,-169.9187,80.49,78,100,1.14,overcast clouds
379,Manyana,BW,-23.4,21.7167,78.76,48,100,14.05,overcast clouds
380,Havoysund,NO,70.9963,24.6622,25.03,85,68,16.91,broken clouds
381,Saint-Francois,FR,46.4154,3.9054,38.64,87,0,11.5,clear sky
382,Morgan City,US,29.6994,-91.2068,44.6,81,40,0.0,scattered clouds
383,Yurino,RU,56.2942,46.3039,6.64,93,99,9.64,overcast clouds
384,Camacari,BR,-12.6975,-38.3242,78.57,93,59,0.76,broken clouds
385,Hamilton,US,39.1834,-84.5333,30.24,91,0,8.05,mist
386,Turtas,RU,58.9417,69.1325,0.99,98,100,2.8,overcast clouds
387,Halifax,CA,44.6453,-63.5724,26.49,71,27,8.01,scattered clouds
388,Weligama,LK,5.9667,80.4167,84.61,66,67,9.62,broken clouds
389,Sivaki,RU,52.6333,126.75,1.56,90,66,5.99,broken clouds
390,Pangnirtung,CA,66.1451,-65.7125,-0.27,61,82,7.47,broken clouds
391,Teahupoo,PF,-17.8333,-149.2667,69.76,75,34,13.8,scattered clouds
392,Baykit,RU,61.67,96.37,-7.29,100,100,0.81,overcast clouds
393,Brigantine,US,39.4101,-74.3646,33.03,80,0,3.0,clear sky
394,Bratsk,RU,56.1325,101.6142,14.49,94,100,2.73,overcast clouds
395,Charagua,BO,-19.8,-63.2167,66.4,96,100,5.66,overcast clouds
396,Dingle,PH,10.9995,122.6711,74.62,95,100,10.11,moderate rain
397,Urucara,BR,-2.5364,-57.76,71.67,99,100,0.85,overcast clouds
398,Taguatinga,BR,-12.3857,-46.5711,67.98,91,63,4.0,broken clouds
399,Panindicuaro,MX,19.9667,-101.7667,54.25,62,91,3.2,overcast clouds
400,Le Port,RE,-20.9373,55.2919,86.0,55,22,4.7,few clouds
401,Ampanihy,MG,-24.7,44.75,86.38,55,0,4.47,clear sky
402,Mezhdurechensk,RU,53.6942,88.0603,20.8,89,98,2.33,overcast clouds
403,Kulhudhuffushi,MV,6.6221,73.07,80.92,78,11,12.03,few clouds
404,Sistranda,NO,63.7256,8.834,30.16,65,53,14.74,broken clouds
405,Komsomolskiy,UZ,40.4272,71.7189,36.32,75,100,4.61,overcast clouds
406,Upernavik,GL,72.7868,-56.1549,3.02,72,100,6.02,overcast clouds
407,Basiawan,PH,6.5342,125.4869,80.17,83,100,4.27,overcast clouds
408,Sussex,US,41.1834,-74.6663,30.43,77,100,0.0,overcast clouds
409,Vila Franca Do Campo,PT,37.7167,-25.4333,61.21,97,100,10.58,moderate rain
410,Timmins,CA,48.4669,-81.3331,19.22,86,100,6.91,snow
411,Pangkalanbuun,ID,-2.6833,111.6167,85.35,66,100,5.59,overcast clouds
412,Santa Cruz,BO,-17.8,-63.1667,76.46,88,75,6.91,broken clouds
413,Fort Frances,CA,48.5999,-93.4003,19.17,82,100,3.0,overcast clouds
414,Yerbogachen,RU,61.2767,108.0108,5.31,93,99,8.97,overcast clouds
415,Praya,CV,14.9215,-23.5087,68.54,68,20,6.91,few clouds
416,Araouane,ML,18.9048,-3.5265,66.22,26,100,10.13,overcast clouds
417,Souillac,MU,-20.5167,57.5167,82.78,65,40,12.66,scattered clouds
418,Bac Lieu,VN,9.285,105.7244,82.98,53,21,4.61,few clouds
419,Myaundzha,RU,63.0494,147.1858,-34.19,98,37,4.03,scattered clouds
420,Deputatskiy,RU,69.3,139.9,-11.43,100,100,1.45,overcast clouds
421,Verkhovazhye,RU,60.7472,42.0465,14.4,92,100,9.4,overcast clouds
422,Zhezkazgan,KZ,47.8043,67.7144,19.38,86,100,4.47,mist
423,Isla Vista,US,34.4133,-119.861,57.83,90,100,4.61,mist
424,Turan,VN,16.0678,108.2208,73.38,83,75,2.3,broken clouds
425,Vredendal,ZA,-31.6683,18.5012,72.79,58,0,7.85,clear sky
426,Itaituba,BR,-4.2761,-55.9836,71.19,99,100,0.83,overcast clouds
427,La Maddalena,IT,41.2142,9.4083,51.85,82,0,21.34,clear sky
428,Riachao Do Jacuipe,BR,-11.8069,-39.3856,68.7,98,37,3.58,scattered clouds
429,Shebalino,RU,51.2917,85.6772,28.92,72,100,3.27,overcast clouds
430,Garoua,CM,9.3,13.4,70.7,24,1,3.85,clear sky
431,Christchurch,NZ,-43.5333,172.6333,69.42,72,40,20.71,scattered clouds
432,Marienburg,PL,54.0359,19.0266,38.84,92,100,12.82,overcast clouds
433,Rocha,UY,-34.4833,-54.3333,63.43,66,100,8.41,overcast clouds
434,Onega,RU,63.9061,38.1404,16.54,92,100,11.54,light snow
435,Tezu,IN,27.9167,96.1667,69.6,36,96,0.56,overcast clouds
436,Castano Primo,IT,45.5536,8.7754,45.84,93,75,3.44,mist
437,Touros,BR,-5.1989,-35.4608,77.9,80,30,11.83,scattered clouds
438,Doda,IN,33.1333,75.5667,62.19,15,100,0.56,overcast clouds
439,Grindavik,IS,63.8424,-22.4338,23.47,74,20,13.8,few clouds
440,Saint-Pierre,RE,-21.3393,55.4781,85.68,58,0,20.71,clear sky
441,Chapais,CA,49.7834,-74.8492,-7.82,99,100,3.85,overcast clouds
442,Zhigansk,RU,66.7697,123.3711,-12.98,97,100,19.48,overcast clouds
443,Cockburn Town,TC,21.4612,-71.1419,79.05,78,0,20.0,clear sky
444,Tianpeng,CN,30.9866,103.9393,48.67,44,97,4.56,overcast clouds
445,Surt,LY,31.2089,16.5887,60.67,69,0,7.63,clear sky
446,Broome,US,42.2506,-75.833,25.66,90,100,5.75,overcast clouds
447,Yulara,AU,-25.2406,130.9889,98.01,26,68,22.08,broken clouds
448,Raudeberg,NO,61.9875,5.1352,33.87,52,100,10.11,overcast clouds
449,Sept-Iles,CA,50.2001,-66.3821,5.0,63,0,10.36,clear sky
450,Tanabe,JP,33.7333,135.3667,54.61,50,75,8.05,broken clouds
451,Calvinia,ZA,-31.4707,19.776,66.02,45,0,5.75,clear sky
452,Manacapuru,BR,-3.2997,-60.6206,72.27,96,100,3.71,light rain
453,Chuari Khas,IN,32.4333,76.0167,61.32,14,93,5.99,overcast clouds
454,Stolbishche,RU,55.6468,49.216,3.65,78,40,6.71,scattered clouds
455,Ha Giang,VN,22.8333,104.9833,54.45,94,100,2.95,overcast clouds
456,Lyngseidet,NO,69.5763,20.2189,26.6,94,100,10.6,snow
457,Lavrentiya,RU,65.5833,-171.0,-6.16,94,76,10.38,broken clouds
458,Taoudenni,ML,22.6783,-3.9836,63.77,29,5,10.27,clear sky
459,Akureyri,IS,65.6835,-18.0878,15.73,92,100,3.44,light snow
460,Nouakchott,MR,18.0858,-15.9785,53.53,78,0,5.35,clear sky
461,Roxana,CR,10.2753,-83.7513,77.97,96,13,3.24,few clouds
462,Waitati,NZ,-45.75,170.5667,65.62,83,0,8.28,clear sky
463,Mahon,ES,39.8885,4.2658,54.16,100,75,0.0,mist
464,Teguldet,RU,57.3064,88.1667,17.28,96,100,3.47,light snow
465,Pokhara,NP,28.2333,83.9833,62.08,37,0,6.24,clear sky
466,Nelson Bay,AU,-32.7167,152.15,82.45,75,0,27.0,clear sky
467,Toamasina,MG,-18.1667,49.3833,86.0,66,40,3.44,light rain
468,Channagiri,IN,14.0333,75.9333,84.63,47,5,9.46,clear sky
469,Polovinnoye,RU,54.7914,65.9864,6.62,96,12,5.66,few clouds
470,Ambatofinandrahana,MG,-20.55,46.8,72.46,63,47,5.93,scattered clouds
471,Rena,NO,61.1348,11.3641,0.73,95,100,3.85,overcast clouds
472,Kiruna,SE,67.8557,20.2251,16.72,93,100,5.75,light snow
473,Lamu,KE,-2.2717,40.902,86.22,68,1,8.37,clear sky
474,Srednekolymsk,RU,67.45,153.6833,-32.03,100,99,5.93,overcast clouds
475,Ulaanbaatar,MN,47.9077,106.8832,-7.47,71,7,0.0,clear sky
476,Najran,SA,17.4924,44.1277,61.45,55,100,7.2,overcast clouds
477,San Jose,US,37.3394,-121.895,51.67,92,75,1.99,broken clouds
478,Mandalgovi,MN,45.7625,106.2708,7.02,66,0,11.74,clear sky
479,Bataipora,BR,-22.2953,-53.2711,71.92,90,7,5.01,clear sky
480,Iranshahr,IR,27.2025,60.6848,64.74,82,75,4.61,light rain
481,Sorland,NO,67.667,12.6934,31.86,54,100,16.55,overcast clouds
482,Doha,QA,25.2867,51.5333,62.91,63,0,16.11,clear sky
483,Merauke,ID,-8.4667,140.3333,80.53,82,100,14.27,overcast clouds
484,Storforshei,NO,66.4043,14.5233,29.98,69,75,11.5,light snow
485,San Quintin,MX,30.4833,-115.95,59.45,84,100,4.36,overcast clouds
486,Bati,ET,11.1833,40.0167,57.96,92,100,3.89,light rain
487,Taltal,CL,-25.4,-70.4833,65.05,84,27,3.15,scattered clouds
488,San Policarpo,PH,12.1791,125.5072,77.38,92,100,15.73,heavy intensity rain
489,San Luis,AR,-33.295,-66.3356,65.88,35,30,9.75,scattered clouds
490,Dombarovskiy,RU,50.7587,59.5386,16.03,92,100,10.4,overcast clouds
491,Kathmandu,NP,27.7167,85.3167,59.22,44,20,2.3,few clouds
492,Honiara,SB,-9.4333,159.95,80.8,84,100,2.17,overcast clouds
493,Namatanai,PG,-3.6667,152.4333,83.21,68,15,6.26,few clouds
494,Narrabri,AU,-30.3167,149.7833,90.52,37,0,3.0,clear sky
495,Goundam,ML,16.4145,-3.6708,68.23,22,100,14.99,overcast clouds
496,Demba,CD,-5.51,22.2667,73.53,86,100,0.54,overcast clouds
497,Puerto Carreno,CO,6.189,-67.4859,75.6,76,30,7.9,scattered clouds
498,Tuatapere,NZ,-46.1333,167.6833,67.75,74,9,4.61,clear sky
499,Shakhunya,RU,57.6758,46.6114,5.14,96,97,9.57,overcast clouds
500,Chimore,BO,-16.9833,-65.1333,71.96,99,100,2.21,very heavy rain
501,Jimo,CN,36.3897,120.4622,37.18,23,0,11.18,clear sky
502,Zatoka,UA,46.0725,30.4654,39.07,72,10,16.46,clear sky
503,Kirakira,SB,-10.4544,161.9205,81.43,84,100,7.72,overcast clouds
504,Bucerias,MX,20.75,-105.3333,69.98,77,0,4.61,clear sky
505,Bonthe,SL,7.5264,-12.505,74.34,92,5,3.0,clear sky
506,Kropotkin,RU,45.4375,40.5756,44.02,81,100,15.79,light rain
507,Mezen,RU,65.8522,44.24,8.85,88,100,10.25,overcast clouds
508,Saldanha,ZA,-33.0117,17.9442,68.05,78,0,11.5,clear sky
509,Cyangugu,RW,-2.4846,28.9075,61.43,97,100,0.92,overcast clouds
510,Puerto Leguizamo,CO,-0.1934,-74.7819,75.42,70,87,2.55,overcast clouds
511,Tashla,RU,51.7716,52.7427,17.53,86,28,9.06,scattered clouds
512,Otavi,NA,-19.65,17.3333,83.88,30,6,13.24,clear sky
513,Milkovo,RU,54.7167,158.6167,-5.01,89,3,2.01,clear sky
514,Abhar,IR,36.1468,49.218,34.2,68,92,5.17,overcast clouds
515,North Myrtle Beach,US,33.816,-78.68,35.02,75,0,0.0,clear sky
516,Uvat,RU,59.1433,68.8953,0.54,98,81,2.55,broken clouds
517,Urumqi,CN,43.801,87.6005,0.55,92,1,2.24,mist
518,Faanui,PF,-16.4833,-151.75,81.32,73,3,14.63,clear sky
519,Cao Bang,VN,22.6667,106.25,53.11,87,100,3.22,overcast clouds
520,Blythe,US,33.6103,-114.5964,63.05,51,100,18.41,overcast clouds
521,Noumea,NC,-22.2763,166.4572,82.0,99,100,3.78,moderate rain
522,Santa Isabel Do Rio Negro,BR,-0.4139,-65.0192,72.1,99,100,4.38,overcast clouds
523,Preobrazheniye,RU,42.9019,133.9064,22.78,62,100,8.34,overcast clouds
524,Davenda,RU,53.5556,119.317,1.13,94,79,3.11,broken clouds
525,Warri,NG,5.5167,5.75,75.65,40,91,4.21,overcast clouds
526,Nalut,LY,30.3333,10.85,51.28,64,0,6.69,clear sky
527,Horadiz,AZ,39.4488,47.3353,34.57,59,0,1.45,clear sky
528,Waingapu,ID,-9.6567,120.2641,85.69,66,100,14.88,overcast clouds
529,Hami,CN,42.8,93.45,24.55,35,8,1.97,clear sky
530,Tayga,RU,56.06,85.6197,18.52,91,100,6.06,overcast clouds
531,Moyale,KE,3.5167,39.0584,76.69,48,100,11.45,overcast clouds
532,Kushima,JP,31.4583,131.2333,54.88,57,7,10.11,clear sky
533,Baniyas,SY,35.1819,35.9487,52.09,68,43,3.83,scattered clouds
534,Sakakah,SA,29.9697,40.2064,49.57,74,9,0.69,clear sky
535,Skovorodino,RU,53.9833,123.9167,-0.8,95,100,2.75,overcast clouds
536,Oranjemund,NA,-28.55,16.4333,66.67,79,37,11.56,scattered clouds
537,Gumdag,TM,39.2061,54.5906,49.14,52,74,2.71,broken clouds
538,Luderitz,NA,-26.6481,15.1594,71.49,47,0,19.13,clear sky
539,Bundaberg,AU,-24.85,152.35,81.21,57,20,7.0,few clouds
540,Necaxa,MX,20.2167,-98.0,51.22,93,23,2.57,few clouds
541,Salgueiro,BR,-8.0742,-39.1192,71.85,86,71,9.44,broken clouds
542,Fare,PF,-16.7,-151.0167,80.62,76,2,15.1,light rain
543,Adrar,MR,20.5022,-10.0711,62.56,28,5,15.23,clear sky
544,Whitley Bay,GB,55.0397,-1.4471,46.92,78,40,4.61,scattered clouds
545,Tsevie,TG,6.4261,1.2133,67.08,53,5,4.41,clear sky
546,Pelym,RU,61.0108,61.9978,-1.57,98,27,2.53,scattered clouds
547,Vagur,FO,61.4732,-6.8119,41.58,62,68,3.96,broken clouds
548,Yanam,IN,16.7333,82.2167,91.96,42,54,2.21,broken clouds
549,Altoona,US,40.5187,-78.3947,31.21,89,84,4.09,broken clouds
550,Minot,US,48.2325,-101.2963,17.82,86,100,9.22,overcast clouds
551,Benicarlo,ES,40.4165,0.4271,48.25,71,0,1.92,clear sky
552,Lixourion,GR,38.2019,20.4314,50.0,100,0,2.3,clear sky
553,Dunedin,NZ,-45.8742,170.5036,64.26,84,0,13.98,clear sky
554,Coos Bay,US,43.3665,-124.2179,48.15,87,100,9.22,overcast clouds
555,Kolpashevo,RU,58.3131,82.9089,15.44,94,100,3.91,light snow
556,Orlik,RU,52.5178,99.825,3.49,90,79,0.98,broken clouds
557,Baruun-Urt,MN,46.6806,113.2792,4.62,79,96,7.99,overcast clouds
558,Oktyabrskoye,RU,43.0645,44.7417,28.54,86,75,2.24,broken clouds
559,Palmer,US,42.1584,-72.3287,25.21,71,9,2.73,clear sky
560,Kargil,IN,34.5667,76.1,15.04,39,0,1.34,clear sky
561,Katghora,IN,22.5,82.55,80.56,16,6,6.64,clear sky
562,Oussouye,SN,12.485,-16.5469,69.89,78,100,6.71,overcast clouds
563,Tecolutla,MX,20.4833,-97.0167,63.28,85,26,5.73,scattered clouds
564,Nanchong,CN,30.7951,106.0847,42.82,88,100,3.24,overcast clouds
565,Chabahar,IR,25.2919,60.643,72.91,79,99,8.95,moderate rain
566,Berdigestyakh,RU,62.0989,126.6992,-16.96,95,99,4.7,overcast clouds
567,Gornopravdinsk,RU,60.05,69.9,-0.69,99,100,3.09,overcast clouds
568,Alfredo Chaves,BR,-20.635,-40.7497,70.29,91,94,4.61,overcast clouds
569,Lata,PT,40.1629,-8.3327,48.54,94,63,3.96,broken clouds
570,Zvishavane,ZW,-20.3267,30.0665,79.14,48,0,9.82,clear sky
571,Odweyne,SO,9.4092,45.064,74.48,34,34,1.34,scattered clouds
572,Bentiu,SS,9.2333,29.8333,77.14,17,5,9.6,clear sky
573,Mina,MX,26.0011,-100.5299,53.22,48,0,4.38,clear sky
574,Shizunai,JP,42.3339,142.3669,36.12,89,100,6.42,overcast clouds
575,Paamiut,GL,61.994,-49.6678,16.2,64,85,10.47,overcast clouds
576,Severo-Kurilsk,RU,50.6789,156.125,29.91,88,86,20.11,overcast clouds
577,Lumeje,AO,-11.55,20.7833,66.45,94,100,5.08,overcast clouds
578,Charters Towers,AU,-20.1,146.2667,85.95,44,50,12.95,scattered clouds
579,Asfi,MA,32.2994,-9.2372,60.13,74,100,3.33,overcast clouds
580,Saint-Augustin,CA,51.226,-58.6502,4.69,79,2,9.57,clear sky
581,Grand Forks,US,47.9417,-97.4337,22.78,86,100,4.61,overcast clouds
582,Abatskoye,RU,56.2875,70.4555,2.16,98,83,5.21,broken clouds
583,Padang,ID,-0.9492,100.3543,84.25,68,100,6.96,overcast clouds
584,Granadilla De Abona,ES,28.1188,-16.576,63.81,57,40,21.85,scattered clouds
585,Inndyr,NO,67.0338,14.0276,35.64,71,100,10.98,light snow
586,Boffa,GN,10.1667,-14.0333,74.5,82,77,3.62,broken clouds
587,Mahajanga,MG,-15.7167,46.3167,86.02,54,20,13.8,few clouds
588,Yenagoa,NG,4.9247,6.2642,76.69,65,57,3.44,broken clouds
589,Camacha,PT,33.0833,-16.3333,60.22,77,20,4.61,few clouds
590,Eskil,TR,38.4017,33.4131,40.55,48,8,1.79,clear sky
591,Biltine,TD,14.5333,20.9167,63.59,29,0,18.3,clear sky
592,Vangaindrano,MG,-23.35,47.6,81.84,67,19,7.65,few clouds
593,Tamandare,BR,-8.7597,-35.1047,76.53,84,77,7.47,broken clouds
594,Oulainen,FI,64.2667,24.8,20.8,96,100,4.21,overcast clouds
595,Tuburan,PH,6.6439,122.2736,82.49,81,100,8.05,light rain
596,Cortez,US,37.3489,-108.5859,39.96,87,100,13.8,light rain
597,Zarand,IR,30.8127,56.564,39.6,93,100,6.15,light rain
598,Concordia,AR,-31.393,-58.0209,64.78,92,0,4.0,clear sky
599,Livramento,BR,-3.0254,-60.1803,74.08,100,75,2.3,broken clouds
600,Miram Shah,PK,33.0086,70.0697,58.93,33,100,0.89,overcast clouds
601,Awbari,LY,26.5921,12.7805,52.02,59,0,4.7,clear sky
602,Gondanglegi,ID,-7.7479,112.0132,86.5,67,63,2.37,broken clouds
603,Forbes,AU,-33.3833,148.0167,94.91,16,0,7.2,clear sky
604,Djibo,BF,14.1022,-1.6306,64.18,25,66,11.25,broken clouds
605,Afonso Bezerra,BR,-5.4983,-36.5056,75.83,81,62,11.45,broken clouds
606,Coihaique,CL,-45.5752,-72.0662,46.35,57,0,3.44,clear sky
607,Moron,AR,-34.6534,-58.6198,75.96,54,10,5.48,clear sky
608,Katangli,RU,51.7102,143.2326,-5.19,99,90,4.0,overcast clouds
609,Greenville,US,35.6127,-77.3663,26.55,93,0,0.0,clear sky
610,Maragogi,BR,-9.0122,-35.2225,76.03,86,13,5.86,few clouds
611,Bathurst,AU,-33.4166,149.5806,91.72,37,2,3.0,clear sky
612,Shitanjing,CN,39.2342,106.3439,20.43,30,0,14.56,clear sky
613,Igarka,RU,67.4667,86.5833,5.56,96,100,7.4,light snow
614,Sabzevar,IR,36.2126,57.6819,42.08,70,0,11.5,clear sky
615,Keetmanshoop,NA,-26.5833,18.1333,77.72,23,7,2.95,clear sky
616,Dzhebariki-Khaya,RU,62.2167,135.8,-37.32,100,87,0.09,overcast clouds
617,Tarauaca,BR,-8.1614,-70.7656,71.2,86,84,1.5,broken clouds
618,Baiao,BR,-2.7906,-49.6717,71.38,97,100,0.94,moderate rain
619,Usinsk,RU,65.9939,57.5281,3.16,97,100,11.41,overcast clouds
620,North Bend,US,43.4065,-124.2243,48.07,87,100,9.22,overcast clouds
621,Malakal,SS,9.5334,31.6605,76.82,18,31,11.65,scattered clouds
622,Barra Do Garcas,BR,-15.89,-52.2567,70.36,99,100,2.68,overcast clouds
623,Concarneau,FR,47.875,-3.9225,54.82,87,100,23.51,overcast clouds
624,Kaka,TM,37.3482,59.6143,47.52,52,76,7.27,broken clouds
625,Devils Lake,US,48.1128,-98.8651,15.94,91,100,11.5,overcast clouds
626,Dusi,IN,12.7667,79.6833,84.9,57,33,5.14,scattered clouds
627,San Cristobal,VE,7.7669,-72.225,63.95,75,13,1.36,few clouds
628,Kyaka,TZ,-1.2522,31.4203,75.02,79,100,0.56,overcast clouds
629,Vilhena,BR,-12.7406,-60.1458,68.68,94,100,3.56,overcast clouds
630,Kansanshi,ZM,-12.0951,26.4273,68.41,80,100,4.63,overcast clouds
631,La Ronge,CA,55.1001,-105.2842,-0.15,85,100,17.27,light snow
632,Rodino,RU,52.5,80.25,12.74,89,77,10.31,broken clouds
633,Shagamu,NG,6.8432,3.6478,72.63,44,7,2.91,clear sky
634,Kununurra,AU,-15.7667,128.7333,89.58,70,100,4.61,overcast clouds
635,Port Macquarie,AU,-31.4333,152.9167,77.9,65,0,14.25,clear sky
636,Valdivia,CL,-39.8142,-73.2459,51.89,79,0,3.04,clear sky
637,Roma,US,43.2128,-75.4557,26.82,68,100,3.44,overcast clouds
638,Lodja,CD,-3.4833,23.4333,74.52,88,99,1.05,overcast clouds
639,Kahului,US,20.8947,-156.47,75.85,75,20,11.01,few clouds
640,Wanaka,NZ,-44.7,169.15,73.35,60,7,10.02,clear sky
641,Punta Alta,AR,-38.8759,-62.0736,59.54,58,100,8.03,overcast clouds
642,Ganzhou,CN,28.8184,115.4327,41.0,90,100,4.83,overcast clouds
643,Snezhnogorsk,RU,69.1933,33.2531,20.98,96,98,10.29,overcast clouds
644,Kruisfontein,ZA,-34.0033,24.7314,69.89,45,0,7.16,clear sky
645,Akyab,MM,20.15,92.9,78.46,54,98,8.63,overcast clouds
646,Santiago Del Estero,AR,-27.7951,-64.2615,67.84,76,0,5.5,clear sky
647,Stanisic,RS,45.94,19.1653,36.32,69,14,5.53,few clouds
648,Bairiki,KI,1.3292,172.9752,84.2,74,75,12.66,light rain
649,Neiafu,TO,-18.65,-173.9833,83.08,83,20,2.3,light rain
650,Mananara,MG,-16.1667,49.7667,82.67,63,94,4.97,overcast clouds
651,Akdepe,TM,42.0551,59.3788,33.89,54,12,5.1,few clouds
652,Alice Town,BS,25.7167,-79.3,71.44,72,100,21.18,overcast clouds
653,Manggar,ID,-2.8833,108.2667,80.76,80,100,12.55,overcast clouds
654,Lakewood,US,39.7047,-105.0814,48.72,57,87,1.99,overcast clouds
655,Sao Gabriel Da Cachoeira,BR,-0.1303,-67.0892,71.24,99,100,2.13,overcast clouds
656,Acarau,BR,-2.8856,-40.12,78.84,78,82,15.64,broken clouds
657,Bombay,IN,19.0144,72.8479,87.78,42,0,4.61,smoke
658,Viedma,AR,-40.8135,-62.9967,57.02,56,12,3.96,few clouds
659,Ponta Delgada,PT,37.7333,-25.6667,61.52,94,75,14.97,light intensity drizzle rain
660,Madimba,TZ,-10.4,40.3333,83.52,78,40,11.5,scattered clouds
661,Ornskoldsvik,SE,63.2909,18.7153,29.35,93,20,8.05,few clouds
662,Floresta,BR,-8.6011,-38.5686,73.17,84,11,9.57,few clouds
663,Effingham,US,32.3669,-81.3332,30.15,60,21,1.43,few clouds
664,Romitan,UZ,39.9343,64.3814,40.95,87,100,0.0,mist
665,Bud,US,39.447,-86.1758,28.85,91,56,11.01,broken clouds
666,Mokrous,RU,51.2333,47.5167,22.15,73,100,10.87,overcast clouds
667,Manta,EC,-0.95,-80.7333,74.16,84,64,6.26,broken clouds
668,Kasongo-Lunda,CD,-6.4667,16.8167,74.66,89,29,0.67,scattered clouds
669,Leeds,GB,53.7964,-1.5477,44.38,84,20,12.66,few clouds
670,Goya,AR,-29.14,-59.2626,60.8,93,0,4.16,clear sky
671,Rio Grande,BR,-32.035,-52.0986,63.95,73,100,6.04,light rain
672,Puerto Quijarro,BO,-17.7833,-57.7667,73.67,94,11,2.13,few clouds
673,Mandurah,AU,-32.55,115.7,72.25,49,0,20.42,clear sky
674,Innisfail,AU,-17.5333,146.0333,78.62,88,100,6.98,overcast clouds
675,Hwange,ZW,-18.3693,26.5019,83.28,41,0,9.22,clear sky
676,Gwembe,ZM,-16.4975,27.6069,73.2,57,39,9.8,scattered clouds
677,Kokopo,PG,-4.352,152.2633,83.05,63,90,12.73,overcast clouds
678,Mumford,GH,5.2618,-0.759,76.62,69,10,3.62,clear sky
679,Luwingu,ZM,-10.2621,29.9271,68.23,88,94,1.12,light rain
680,Svirstroy,RU,60.7999,33.7248,21.81,95,96,8.48,overcast clouds
681,Cuamba,MZ,-14.8031,36.5372,76.05,82,88,2.75,moderate rain
682,Manjacaze,MZ,-24.7117,33.8828,87.42,52,11,0.81,few clouds
683,Blackpool,GB,53.8167,-3.05,44.91,87,40,10.36,scattered clouds
684,Golden,US,39.7555,-105.2211,50.29,61,97,9.08,overcast clouds
685,Venado Tuerto,AR,-33.7456,-61.9688,61.0,71,0,8.52,clear sky
686,Tukrah,LY,32.5341,20.5791,62.67,82,33,9.19,scattered clouds
687,Sibu,MY,2.3,111.8167,77.31,94,75,5.75,broken clouds
688,Bubaque,GW,11.2833,-15.8333,74.73,72,98,16.93,overcast clouds
689,Sao Jose Da Coroa Grande,BR,-8.8978,-35.1478,76.82,84,39,8.41,scattered clouds
690,Tornio,FI,65.8481,24.1466,21.22,97,100,4.52,overcast clouds
691,Ormara,PK,25.2088,64.6357,73.31,72,36,1.9,scattered clouds
692,Altay,CN,47.8667,88.1167,16.68,74,8,2.3,clear sky
693,Kenora,CA,49.8167,-94.4337,14.97,92,100,11.5,overcast clouds
694,Corinto,GR,37.9407,22.9573,55.8,78,12,0.63,few clouds
695,Arkhipo-Osipovka,RU,44.37,38.52,48.47,91,100,13.29,light rain
696,Harrisburg,US,40.2737,-76.8844,33.94,77,100,5.75,overcast clouds
697,Yekaterinovka,RU,52.0508,44.3451,23.38,94,100,17.63,light snow
698,Rincon,US,32.296,-81.2354,40.86,74,0,0.0,clear sky
699,Arman,RU,59.7,150.1667,-3.86,80,0,9.82,clear sky
700,Bamiantong,CN,44.9333,130.5333,6.03,81,28,12.1,scattered clouds
701,Sulangan,PH,11.1373,123.7228,78.48,87,100,18.19,moderate rain
702,Kasama,ZM,-10.2129,31.1808,62.64,98,100,2.57,light rain
703,Mama,RU,58.3106,112.8986,-0.58,98,100,5.23,overcast clouds
704,Seguin,US,29.5688,-97.9647,46.72,60,0,8.05,clear sky
705,Torit,SS,4.4133,32.5678,80.8,27,95,4.25,overcast clouds
706,Sierra Vista,US,31.5545,-110.3037,55.85,25,0,12.66,clear sky
707,Bluefield,US,37.2698,-81.2223,27.52,93,11,2.48,few clouds
708,Sambava,MG,-14.2667,50.1667,81.61,59,2,9.28,clear sky
